[
    {
        "id": 2287,
        "name": "River Bend Brewing",
        "brewery_type": "micro",
        "street": "113 River Bend Rd",
        "address_2": null,
        "address_3": null,
        "city": "Hailey",
        "state": "Idaho",
        "county_province": null,
        "postal_code": "83333-",
        "country": "United States",
        "longitude": null,
        "latitude": null,
        "phone": "2087888087",
        "website_url": "",
        "updated_at": "2018-08-11T21:37:06.662Z",
        "created_at": "2018-07-24T01:33:17.594Z"
    },
    {
        "id": 6895,
        "name": "Suds Monkey Brewing",
        "brewery_type": "micro",
        "street": "1032 Canyon Bend Dr Suite A",
        "address_2": null,
        "address_3": null,
        "city": "Dripping Springs",
        "state": "Texas",
        "county_province": null,
        "postal_code": "78620-5355",
        "country": "United States",
        "longitude": null,
        "latitude": null,
        "phone": "5122223893",
        "website_url": "http://www.sudsmonkeybrew.com",
        "updated_at": "2018-08-11T21:39:55.094Z",
        "created_at": "2018-07-24T01:34:21.528Z"
    },
    {
        "id": 1080,
        "name": "Tannery Bend Beerworks",
        "brewery_type": "brewpub",
        "street": "101 South Coombs Street Suite X",
        "address_2": null,
        "address_3": null,
        "city": "Napa",
        "state": "California",
        "county_province": null,
        "postal_code": "94559",
        "country": "United States",
        "longitude": null,
        "latitude": null,
        "phone": "7076815774",
        "website_url": "http://www.tannerybendbeerworks.com",
        "updated_at": "2018-08-11T21:36:23.754Z",
        "created_at": "2018-07-24T01:33:01.735Z"
    },
    {
        "id": 5655,
        "name": "Beavers Bend Brewery",
        "brewery_type": "micro",
        "street": "46 Coho Rd",
        "address_2": null,
        "address_3": null,
        "city": "Broken Bow",
        "state": "Oklahoma",
        "county_province": null,
        "postal_code": "74728-6765",
        "country": "United States",
        "longitude": null,
        "latitude": null,
        "phone": "5804943455",
        "website_url": "http://www.beaversbendbrewery.com",
        "updated_at": "2018-08-11T21:39:07.445Z",
        "created_at": "2018-07-24T01:34:03.881Z"
    },
    {
        "id": 5724,
        "name": "Bend Brewing Co",
        "brewery_type": "brewpub",
        "street": "1019 NW Brooks St",
        "address_2": null,
        "address_3": null,
        "city": "Bend",
        "state": "Oregon",
        "county_province": null,
        "postal_code": "97703-2018",
        "country": "United States",
        "longitude": "-121.31393115",
        "latitude": "44.06051115",
        "phone": "5413831599",
        "website_url": "http://www.bendbrewingco.com",
        "updated_at": "2018-08-24T15:45:56.077Z",
        "created_at": "2018-07-24T01:34:04.815Z"
    },
    {
        "id": 6698,
        "name": "Coastal Bend Brewing",
        "brewery_type": "planning",
        "street": "",
        "address_2": null,
        "address_3": null,
        "city": "Corpus Christi",
        "state": "Texas",
        "county_province": null,
        "postal_code": "78418-6697",
        "country": "United States",
        "longitude": null,
        "latitude": null,
        "phone": "5126901050",
        "website_url": "http://www.coastalbendbrewing.com",
        "updated_at": "2018-08-11T21:39:48.402Z",
        "created_at": "2018-07-24T01:34:18.768Z"
    },
    {
        "id": 7057,
        "name": "Ten Bends Beer",
        "brewery_type": "micro",
        "street": "590 E Main St",
        "address_2": null,
        "address_3": null,
        "city": "Hyde Park",
        "state": "Vermont",
        "county_province": null,
        "postal_code": "05655-9267",
        "country": "United States",
        "longitude": "-72.6051502167353",
        "latitude": "44.5889469434272",
        "phone": "8025217139",
        "website_url": "http://wwwtenbendsbeer.com",
        "updated_at": "2018-08-24T16:26:34.184Z",
        "created_at": "2018-07-24T01:34:23.733Z"
    },
    {
        "id": 2693,
        "name": "South Bend Brew Werks",
        "brewery_type": "brewpub",
        "street": "216 S Michigan St",
        "address_2": null,
        "address_3": null,
        "city": "South Bend",
        "state": "Indiana",
        "county_province": null,
        "postal_code": "46601-2002",
        "country": "United States",
        "longitude": "-86.2528557156014",
        "latitude": "41.6261185524131",
        "phone": "5743340356",
        "website_url": "http://www.southbendbrewwerks.com",
        "updated_at": "2018-08-24T00:33:22.084Z",
        "created_at": "2018-07-24T01:33:22.806Z"
    },
    {
        "id": 5398,
        "name": "Collision Bend Brewing Co",
        "brewery_type": "brewpub",
        "street": "1250 Old River Rd",
        "address_2": null,
        "address_3": null,
        "city": "Cleveland",
        "state": "Ohio",
        "county_province": null,
        "postal_code": "44113-1243",
        "country": "United States",
        "longitude": "-81.703971902824",
        "latitude": "41.4988482948004",
        "phone": "2162737879",
        "website_url": "http://www.collisionbendbrewery.com",
        "updated_at": "2018-08-24T15:43:39.140Z",
        "created_at": "2018-07-24T01:34:00.272Z"
    },
    {
        "id": 5725,
        "name": "Bend Brewing High Desert",
        "brewery_type": "micro",
        "street": "20650 NE High Desert Lane",
        "address_2": null,
        "address_3": null,
        "city": "Bend",
        "state": "Oregon",
        "county_province": null,
        "postal_code": "97701",
        "country": "United States",
        "longitude": null,
        "latitude": null,
        "phone": "5413831599",
        "website_url": "",
        "updated_at": "2018-08-11T21:39:10.775Z",
        "created_at": "2018-07-24T01:34:04.827Z"
    },
    {
        "id": 5744,
        "name": "Brewery In Planning - Bend",
        "brewery_type": "planning",
        "street": "",
        "address_2": null,
        "address_3": null,
        "city": "Bend",
        "state": "Oregon",
        "county_province": null,
        "postal_code": "97702-2783",
        "country": "United States",
        "longitude": null,
        "latitude": null,
        "phone": "",
        "website_url": "",
        "updated_at": "2018-08-11T21:39:11.462Z",
        "created_at": "2018-07-24T01:34:05.158Z"
    },
    {
        "id": 6560,
        "name": "Moccasin Bend Brewing Co",
        "brewery_type": "micro",
        "street": "3210 Broad St # B",
        "address_2": null,
        "address_3": null,
        "city": "Chattanooga",
        "state": "Tennessee",
        "county_province": null,
        "postal_code": "37408-3059",
        "country": "United States",
        "longitude": null,
        "latitude": null,
        "phone": "4238216392",
        "website_url": "http://www.bendbrewingbeer.com",
        "updated_at": "2018-08-11T21:39:43.332Z",
        "created_at": "2018-07-24T01:34:16.780Z"
    },
    {
        "id": 6640,
        "name": "Big Bend Brewing Co",
        "brewery_type": "micro",
        "street": "3401 W Highway 90",
        "address_2": null,
        "address_3": null,
        "city": "Alpine",
        "state": "Texas",
        "county_province": null,
        "postal_code": "79830-4127",
        "country": "United States",
        "longitude": null,
        "latitude": null,
        "phone": "4328373700",
        "website_url": "http://www.bigbendbrewing.com",
        "updated_at": "2018-08-11T21:39:46.352Z",
        "created_at": "2018-07-24T01:34:17.924Z"
    },
    {
        "id": 2320,
        "name": "Around the Bend Beer Co.",
        "brewery_type": "contract",
        "street": "811 N Oak Park Ave",
        "address_2": null,
        "address_3": null,
        "city": "Oak Park",
        "state": "Illinois",
        "county_province": null,
        "postal_code": "60302-1538",
        "country": "United States",
        "longitude": "-87.7949303388093",
        "latitude": "41.9001559306097",
        "phone": "3129522339",
        "website_url": "http://www.atbbeerco.com",
        "updated_at": "2018-08-24T00:30:29.444Z",
        "created_at": "2018-07-24T01:33:18.080Z"
    },
    {
        "id": 7990,
        "name": "West Bend Lithia Beer Co",
        "brewery_type": "contract",
        "street": "825 Schoenhaar Dr",
        "address_2": null,
        "address_3": null,
        "city": "West Bend",
        "state": "Wisconsin",
        "county_province": null,
        "postal_code": "53090-2633",
        "country": "United States",
        "longitude": "-88.1577515345107",
        "latitude": "43.4313618830334",
        "phone": "2623343000",
        "website_url": "http://www.lithiabeer.com",
        "updated_at": "2018-08-24T16:46:26.724Z",
        "created_at": "2018-07-24T01:34:37.198Z"
    },
    {
        "id": 5694,
        "name": "TEST 10 Barrel Brewing Co",
        "brewery_type": "large",
        "street": "62970 18th St",
        "address_2": null,
        "address_3": null,
        "city": "Bend",
        "state": "Oregon",
        "county_province": null,
        "postal_code": "97701-9847",
        "country": "United States",
        "longitude": null,
        "latitude": null,
        "phone": "5415851007",
        "website_url": "http://www.10barrel.com",
        "updated_at": "2018-08-11T21:39:09.349Z",
        "created_at": "2018-07-24T01:34:04.428Z"
    },
    {
        "id": 5696,
        "name": "10 Barrel Brewing Co",
        "brewery_type": "large",
        "street": "1135 NW Galveston Ave Ste B",
        "address_2": null,
        "address_3": null,
        "city": "Bend",
        "state": "Oregon",
        "county_province": null,
        "postal_code": "97703-2465",
        "country": "United States",
        "longitude": null,
        "latitude": null,
        "phone": "5415851007",
        "website_url": "",
        "updated_at": "2018-08-11T21:39:09.426Z",
        "created_at": "2018-07-24T01:34:04.452Z"
    },
    {
        "id": 5697,
        "name": "10 Barrel Brewing Co - Bend Pub",
        "brewery_type": "large",
        "street": "62950 NE 18th St",
        "address_2": null,
        "address_3": null,
        "city": "Bend",
        "state": "Oregon",
        "county_province": null,
        "postal_code": "97701",
        "country": "United States",
        "longitude": "-121.2809536",
        "latitude": "44.0912109",
        "phone": "5415851007",
        "website_url": "",
        "updated_at": "2018-08-24T15:45:44.243Z",
        "created_at": "2018-07-24T01:34:04.464Z"
    },
    {
        "id": 5727,
        "name": "Bevel Craft Brewing",
        "brewery_type": "planning",
        "street": "",
        "address_2": null,
        "address_3": null,
        "city": "Bend",
        "state": "Oregon",
        "county_province": null,
        "postal_code": "97701-4924",
        "country": "United States",
        "longitude": null,
        "latitude": null,
        "phone": "8313451922",
        "website_url": "http://www.bevelbeer.com",
        "updated_at": "2018-08-11T21:39:10.846Z",
        "created_at": "2018-07-24T01:34:04.852Z"
    },
    {
        "id": 5735,
        "name": "Boneyard Beer Co",
        "brewery_type": "micro",
        "street": "37 NW Lake Pl Ste B",
        "address_2": null,
        "address_3": null,
        "city": "Bend",
        "state": "Oregon",
        "county_province": null,
        "postal_code": "97703-2971",
        "country": "United States",
        "longitude": null,
        "latitude": null,
        "phone": "5413232325",
        "website_url": "",
        "updated_at": "2018-08-11T21:39:11.120Z",
        "created_at": "2018-07-24T01:34:04.951Z"
    },
    {
        "id": 5736,
        "name": "Boneyard Beer Co",
        "brewery_type": "regional",
        "street": "63097 Plateau Dr",
        "address_2": null,
        "address_3": null,
        "city": "Bend",
        "state": "Oregon",
        "county_province": null,
        "postal_code": "97701",
        "country": "United States",
        "longitude": null,
        "latitude": null,
        "phone": "5413232325",
        "website_url": "http://www.boneyardbeer.com",
        "updated_at": "2018-08-11T21:39:11.155Z",
        "created_at": "2018-07-24T01:34:04.964Z"
    },
    {
        "id": 5750,
        "name": "Bridge 99 Brewery",
        "brewery_type": "micro",
        "street": "63063 Layton Ave",
        "address_2": null,
        "address_3": null,
        "city": "Bend",
        "state": "Oregon",
        "county_province": null,
        "postal_code": "97701-7087",
        "country": "United States",
        "longitude": null,
        "latitude": null,
        "phone": "5412801690",
        "website_url": "",
        "updated_at": "2018-08-11T21:39:11.663Z",
        "created_at": "2018-07-24T01:34:05.239Z"
    },
    {
        "id": 5774,
        "name": "Craft Kitchen and Brewery",
        "brewery_type": "brewpub",
        "street": "62988 Layton Ave Ste 103",
        "address_2": null,
        "address_3": null,
        "city": "Bend",
        "state": "Oregon",
        "county_province": null,
        "postal_code": "97701-6692",
        "country": "United States",
        "longitude": null,
        "latitude": null,
        "phone": "5416681766",
        "website_url": "http://www.craftkitchenandbrewery.com",
        "updated_at": "2018-08-11T21:39:12.565Z",
        "created_at": "2018-07-24T01:34:05.568Z"
    },
    {
        "id": 5776,
        "name": "Crux Fermentation Project",
        "brewery_type": "regional",
        "street": "50 SW Division St",
        "address_2": null,
        "address_3": null,
        "city": "Bend",
        "state": "Oregon",
        "county_province": null,
        "postal_code": "97702-1600",
        "country": "United States",
        "longitude": null,
        "latitude": null,
        "phone": "5413887558",
        "website_url": "http://www.cruxfermentation.com",
        "updated_at": "2018-08-11T21:39:12.620Z",
        "created_at": "2018-07-24T01:34:05.597Z"
    },
    {
        "id": 5777,
        "name": "Crux Fermentation Project - Crux2",
        "brewery_type": "micro",
        "street": "63065 18th St",
        "address_2": null,
        "address_3": null,
        "city": "Bend",
        "state": "Oregon",
        "county_province": null,
        "postal_code": "97701-9981",
        "country": "United States",
        "longitude": null,
        "latitude": null,
        "phone": "",
        "website_url": "",
        "updated_at": "2018-08-11T21:39:12.649Z",
        "created_at": "2018-07-24T01:34:05.611Z"
    },
    {
        "id": 5785,
        "name": "Deschutes Brewery",
        "brewery_type": "regional",
        "street": "901 SW Simpson Ave",
        "address_2": null,
        "address_3": null,
        "city": "Bend",
        "state": "Oregon",
        "county_province": null,
        "postal_code": "97702-3118",
        "country": "United States",
        "longitude": "-121.324618420089",
        "latitude": "44.0478063800099",
        "phone": "5413858606",
        "website_url": "http://www.deschutesbrewery.com",
        "updated_at": "2018-08-24T16:01:18.807Z",
        "created_at": "2018-07-24T01:34:05.719Z"
    },
    {
        "id": 5786,
        "name": "Deschutes Brewery & Public House",
        "brewery_type": "brewpub",
        "street": "1044 NW Bond St",
        "address_2": null,
        "address_3": null,
        "city": "Bend",
        "state": "Oregon",
        "county_province": null,
        "postal_code": "97703-2002",
        "country": "United States",
        "longitude": "-121.311384469532",
        "latitude": "44.05941415",
        "phone": "5413829242",
        "website_url": "http://www.deschutesbrewery.com",
        "updated_at": "2018-08-24T16:01:20.256Z",
        "created_at": "2018-07-24T01:34:05.731Z"
    },
    {
        "id": 5815,
        "name": "GoodLife Brewing Company",
        "brewery_type": "regional",
        "street": "70 SW Century Ave 100-464",
        "address_2": null,
        "address_3": null,
        "city": "Bend",
        "state": "Oregon",
        "county_province": null,
        "postal_code": "97701",
        "country": "United States",
        "longitude": null,
        "latitude": null,
        "phone": "5417280749",
        "website_url": "http://www.goodlifebrewing.com",
        "updated_at": "2018-08-11T21:39:14.019Z",
        "created_at": "2018-07-24T01:34:06.119Z"
    },
    {
        "id": 5829,
        "name": "Immersion Brewing",
        "brewery_type": "brewpub",
        "street": "550 SW Industrial Way",
        "address_2": null,
        "address_3": null,
        "city": "Bend",
        "state": "Oregon",
        "county_province": null,
        "postal_code": "97702-1084",
        "country": "United States",
        "longitude": "-121.31552305",
        "latitude": "44.05100445",
        "phone": "5416337821",
        "website_url": "http://www.imbrewing.com",
        "updated_at": "2018-08-24T16:02:17.900Z",
        "created_at": "2018-07-24T01:34:06.310Z"
    },
    {
        "id": 5869,
        "name": "McMenamins Old St. Francis School",
        "brewery_type": "brewpub",
        "street": "700 NW Bond St",
        "address_2": null,
        "address_3": null,
        "city": "Bend",
        "state": "Oregon",
        "county_province": null,
        "postal_code": "97703-2702",
        "country": "United States",
        "longitude": "-121.314499",
        "latitude": "44.0566885",
        "phone": "5413825174",
        "website_url": "http://www.mcmenamins.com",
        "updated_at": "2018-08-24T16:03:15.596Z",
        "created_at": "2018-07-24T01:34:06.834Z"
    },
    {
        "id": 5879,
        "name": "Monkless Belgian Ales",
        "brewery_type": "micro",
        "street": "20750 High Desert Ln Suite 107",
        "address_2": null,
        "address_3": null,
        "city": "Bend",
        "state": "Oregon",
        "county_province": null,
        "postal_code": "97701",
        "country": "United States",
        "longitude": null,
        "latitude": null,
        "phone": "5416105492",
        "website_url": "http://www.monkless.com",
        "updated_at": "2018-08-11T21:39:16.336Z",
        "created_at": "2018-07-24T01:34:06.962Z"
    },
    {
        "id": 5890,
        "name": "Oblivion Brewing Co",
        "brewery_type": "micro",
        "street": "63027 Plateau Dr Ste 4",
        "address_2": null,
        "address_3": null,
        "city": "Bend",
        "state": "Oregon",
        "county_province": null,
        "postal_code": "97701-3855",
        "country": "United States",
        "longitude": null,
        "latitude": null,
        "phone": "5417283509",
        "website_url": "http://www.oblivionbrewingco.com",
        "updated_at": "2018-08-11T21:39:16.864Z",
        "created_at": "2018-07-24T01:34:07.113Z"
    },
    {
        "id": 5919,
        "name": "RiverBend Brewing Pub",
        "brewery_type": "brewpub",
        "street": "2650 NE Division St",
        "address_2": null,
        "address_3": null,
        "city": "Bend",
        "state": "Oregon",
        "county_province": null,
        "postal_code": "97703-3569",
        "country": "United States",
        "longitude": null,
        "latitude": null,
        "phone": "5415507550",
        "website_url": "http://www.riverbendbrewing.com",
        "updated_at": "2018-08-11T21:39:18.098Z",
        "created_at": "2018-07-24T01:34:07.518Z"
    },
    {
        "id": 5937,
        "name": "Shade Tree Brewing",
        "brewery_type": "micro",
        "street": "",
        "address_2": null,
        "address_3": null,
        "city": "Bend",
        "state": "Oregon",
        "county_province": null,
        "postal_code": "97702",
        "country": "United States",
        "longitude": null,
        "latitude": null,
        "phone": "5413833730",
        "website_url": "http://www.shadetreebrewing.com",
        "updated_at": "2018-08-11T21:39:18.975Z",
        "created_at": "2018-07-24T01:34:07.777Z"
    },
    {
        "id": 5939,
        "name": "Silver Moon Brewing",
        "brewery_type": "micro",
        "street": "24 NW Greenwood Ave",
        "address_2": null,
        "address_3": null,
        "city": "Bend",
        "state": "Oregon",
        "county_province": null,
        "postal_code": "97703-2027",
        "country": "United States",
        "longitude": "-121.307915134821",
        "latitude": "44.0603904",
        "phone": "5413888331",
        "website_url": "",
        "updated_at": "2018-08-24T16:04:53.530Z",
        "created_at": "2018-07-24T01:34:07.802Z"
    },
    {
        "id": 5957,
        "name": "The Ale Apothecary",
        "brewery_type": "micro",
        "street": "30 SW Century Drive Suite 140",
        "address_2": null,
        "address_3": null,
        "city": "Bend",
        "state": "Oregon",
        "county_province": null,
        "postal_code": "97702",
        "country": "United States",
        "longitude": null,
        "latitude": null,
        "phone": "5414081525",
        "website_url": "http://www.thealeapothecary.com",
        "updated_at": "2018-08-11T21:39:19.743Z",
        "created_at": "2018-07-24T01:34:08.045Z"
    },
    {
        "id": 5987,
        "name": "Worthy Brewing Company",
        "brewery_type": "micro",
        "street": "495 NE Bellevue Dr",
        "address_2": null,
        "address_3": null,
        "city": "Bend",
        "state": "Oregon",
        "county_province": null,
        "postal_code": "97701-7412",
        "country": "United States",
        "longitude": "-121.26039154918",
        "latitude": "44.0553542",
        "phone": "5416394772",
        "website_url": "http://www.worthybrewing.com",
        "updated_at": "2018-08-24T16:05:54.789Z",
        "created_at": "2018-07-24T01:34:08.468Z"
    },
    {
        "id": 6244,
        "name": "River Bend Hop Farm And Brewery",
        "brewery_type": "micro",
        "street": "1800 Lower Bailey Rd",
        "address_2": null,
        "address_3": null,
        "city": "Newport",
        "state": "Pennsylvania",
        "county_province": null,
        "postal_code": "17074-7622",
        "country": "United States",
        "longitude": null,
        "latitude": null,
        "phone": "7173156764",
        "website_url": "http://www.riverbendhopfarmandbrewery.com",
        "updated_at": "2018-08-11T21:39:30.326Z",
        "created_at": "2018-07-24T01:34:12.212Z"
    },
    {
        "id": 2614,
        "name": "Crooked Ewe Brewery & Ale House",
        "brewery_type": "brewpub",
        "street": "1047 Lincoln Way E",
        "address_2": null,
        "address_3": null,
        "city": "South Bend",
        "state": "Indiana",
        "county_province": null,
        "postal_code": "46601-3726",
        "country": "United States",
        "longitude": null,
        "latitude": null,
        "phone": "5742170881",
        "website_url": "http://www.crookedewe.com",
        "updated_at": "2018-08-11T21:37:18.713Z",
        "created_at": "2018-07-24T01:33:21.807Z"
    },
    {
        "id": 2697,
        "name": "Studebaker Brewing Company",
        "brewery_type": "planning",
        "street": "",
        "address_2": null,
        "address_3": null,
        "city": "South Bend",
        "state": "Indiana",
        "county_province": null,
        "postal_code": "46601",
        "country": "United States",
        "longitude": null,
        "latitude": null,
        "phone": "5742349077",
        "website_url": "http://www.studebakerbrewingco.com",
        "updated_at": "2018-08-11T21:37:21.508Z",
        "created_at": "2018-07-24T01:33:22.855Z"
    },
    {
        "id": 7030,
        "name": "Hill Farmstead Brewery",
        "brewery_type": "micro",
        "street": "403 Hill Rd",
        "address_2": null,
        "address_3": null,
        "city": "Greensboro Bend",
        "state": "Vermont",
        "county_province": null,
        "postal_code": "05842-8813",
        "country": "United States",
        "longitude": null,
        "latitude": null,
        "phone": "8025337450",
        "website_url": "http://www.hillfarmstead.com",
        "updated_at": "2018-08-11T21:39:59.644Z",
        "created_at": "2018-07-24T01:34:23.372Z"
    },
    {
        "id": 7931,
        "name": "Riverside Brewery &  Restaurant",
        "brewery_type": "brewpub",
        "street": "255 S Main St",
        "address_2": null,
        "address_3": null,
        "city": "West Bend",
        "state": "Wisconsin",
        "county_province": null,
        "postal_code": "53095-3323",
        "country": "United States",
        "longitude": "-88.181280877551",
        "latitude": "43.4216479183673",
        "phone": "2623342739",
        "website_url": "",
        "updated_at": "2018-08-24T16:45:08.389Z",
        "created_at": "2018-07-24T01:34:36.395Z"
    },
    {
        "id": 7009,
        "name": "Bent Hill Brewery",
        "brewery_type": "micro",
        "street": "1972 Bent Hill Rd",
        "address_2": null,
        "address_3": null,
        "city": "Randolph",
        "state": "Vermont",
        "county_province": null,
        "postal_code": "05060-8833",
        "country": "United States",
        "longitude": null,
        "latitude": null,
        "phone": "8022491125",
        "website_url": "http://www.benthilbrewery.com",
        "updated_at": "2018-08-11T21:39:58.792Z",
        "created_at": "2018-07-24T01:34:23.080Z"
    },
    {
        "id": 7506,
        "name": "Hood Canal Brewery",
        "brewery_type": "brewpub",
        "street": "26499 Bond Rd NE",
        "address_2": null,
        "address_3": null,
        "city": "Kingston",
        "state": "Washington",
        "county_province": null,
        "postal_code": "98346-8477",
        "country": "United States",
        "longitude": null,
        "latitude": null,
        "phone": "3602978316",
        "website_url": "http://www.hoodcanalbrewery.com",
        "updated_at": "2018-08-11T21:40:17.789Z",
        "created_at": "2018-07-24T01:34:30.409Z"
    },
    {
        "id": 8028,
        "name": "WYOld West Brewing Company",
        "brewery_type": "brewpub",
        "street": "221 N Bent St",
        "address_2": null,
        "address_3": null,
        "city": "Powell",
        "state": "Wyoming",
        "county_province": null,
        "postal_code": "82435-2335",
        "country": "United States",
        "longitude": "-108.757481305962",
        "latitude": "44.7545199305948",
        "phone": "3077646200",
        "website_url": "http://www.wyoldwest.com",
        "updated_at": "2018-08-24T16:47:12.242Z",
        "created_at": "2018-07-24T01:34:37.691Z"
    },
    {
        "id": 2185,
        "name": "Rick Tanner's Grille & Bar/Cherry Street Brewing Cooperative",
        "brewery_type": "brewpub",
        "street": "5810 Bond St # E-2",
        "address_2": null,
        "address_3": null,
        "city": "Cumming",
        "state": "Georgia",
        "county_province": null,
        "postal_code": "30040-0301",
        "country": "United States",
        "longitude": null,
        "latitude": null,
        "phone": "7702055512",
        "website_url": "http://www.rtanners.com",
        "updated_at": "2018-08-11T21:37:03.329Z",
        "created_at": "2018-07-24T01:33:16.282Z"
    },
    {
        "id": 2323,
        "name": "Band Of Bohemia",
        "brewery_type": "brewpub",
        "street": "4710 N Ravenswood Ave",
        "address_2": null,
        "address_3": null,
        "city": "Chicago",
        "state": "Illinois",
        "county_province": null,
        "postal_code": "60640-4408",
        "country": "United States",
        "longitude": "-87.6750827",
        "latitude": "41.9675954",
        "phone": "7732714710",
        "website_url": "http://bandofbohemia.com",
        "updated_at": "2018-08-24T00:30:30.769Z",
        "created_at": "2018-07-24T01:33:18.117Z"
    },
    {
        "id": 2983,
        "name": "Banded Brewing Company",
        "brewery_type": "micro",
        "street": "32 Main St. Bldg 13-W Ste 102",
        "address_2": null,
        "address_3": null,
        "city": "Biddeford",
        "state": "Maine",
        "county_province": null,
        "postal_code": "04005-5145",
        "country": "United States",
        "longitude": null,
        "latitude": null,
        "phone": "2076021561",
        "website_url": "http://www.bandedhorn.com",
        "updated_at": "2018-08-11T21:37:30.445Z",
        "created_at": "2018-07-24T01:33:26.785Z"
    },
    {
        "id": 3417,
        "name": "Belding Brewing Company",
        "brewery_type": "planning",
        "street": "",
        "address_2": null,
        "address_3": null,
        "city": "Belding",
        "state": "Michigan",
        "county_province": null,
        "postal_code": "48809-1678",
        "country": "United States",
        "longitude": null,
        "latitude": null,
        "phone": "6163086285",
        "website_url": "",
        "updated_at": "2018-08-11T21:37:45.750Z",
        "created_at": "2018-07-24T01:33:32.930Z"
    },
    {
        "id": 1219,
        "name": "Banded Oak Brewing Company",
        "brewery_type": "brewpub",
        "street": "470 N Broadway",
        "address_2": null,
        "address_3": null,
        "city": "Denver",
        "state": "Colorado",
        "county_province": null,
        "postal_code": "80203-3404",
        "country": "United States",
        "longitude": "-104.9874187",
        "latitude": "39.7282897",
        "phone": "7204798033",
        "website_url": "http://Bandedoakbrewing.com",
        "updated_at": "2018-08-24T00:05:34.324Z",
        "created_at": "2018-07-24T01:33:03.602Z"
    },
    {
        "id": 6813,
        "name": "Nine Band Brewing Co.",
        "brewery_type": "micro",
        "street": "9 Prestige Cir",
        "address_2": null,
        "address_3": null,
        "city": "Allen",
        "state": "Texas",
        "county_province": null,
        "postal_code": "75002-3419",
        "country": "United States",
        "longitude": "-96.6728078612257",
        "latitude": "33.0931001",
        "phone": "9726635707",
        "website_url": "http://www.ninebandbrewing.com",
        "updated_at": "2018-08-24T16:22:02.538Z",
        "created_at": "2018-07-24T01:34:20.370Z"
    },
    {
        "id": 4,
        "name": "Band of Brothers Brewing Company",
        "brewery_type": "micro",
        "street": "1605 23rd Ave",
        "address_2": null,
        "address_3": null,
        "city": "Tuscaloosa",
        "state": "Alabama",
        "county_province": null,
        "postal_code": "35401-4653",
        "country": "United States",
        "longitude": "-87.5621551272424",
        "latitude": "33.1984907123707",
        "phone": "2052665137",
        "website_url": null,
        "updated_at": "2018-08-23T23:19:59.462Z",
        "created_at": "2018-07-24T01:32:47.279Z"
    },
    {
        "id": 6620,
        "name": "B and J's Handcrafted Texas Ales",
        "brewery_type": "micro",
        "street": "6335 S Padre Island Dr",
        "address_2": null,
        "address_3": null,
        "city": "Corpus Christi",
        "state": "Texas",
        "county_province": null,
        "postal_code": "78412-4013",
        "country": "United States",
        "longitude": "-97.2962784",
        "latitude": "27.6749936",
        "phone": "3619926671",
        "website_url": "http://pizzaandbrew@aol.com",
        "updated_at": "2018-08-24T16:18:44.749Z",
        "created_at": "2018-07-24T01:34:17.653Z"
    }
]
