[
    {
        "id": 5776,
        "name": "Crux Fermentation Project",
        "brewery_type": "regional",
        "street": "50 SW Division St",
        "address_2": null,
        "address_3": null,
        "city": "Bend",
        "state": "Oregon",
        "county_province": null,
        "postal_code": "97702-1600",
        "country": "United States",
        "longitude": null,
        "latitude": null,
        "phone": "5413887558",
        "website_url": "http://www.cruxfermentation.com",
        "updated_at": "2018-08-11T21:39:12.620Z",
        "created_at": "2018-07-24T01:34:05.597Z"
    },
    {
        "id": 5777,
        "name": "Crux Fermentation Project - Crux2",
        "brewery_type": "micro",
        "street": "63065 18th St",
        "address_2": null,
        "address_3": null,
        "city": "Bend",
        "state": "Oregon",
        "county_province": null,
        "postal_code": "97701-9981",
        "country": "United States",
        "longitude": null,
        "latitude": null,
        "phone": "",
        "website_url": "",
        "updated_at": "2018-08-11T21:39:12.649Z",
        "created_at": "2018-07-24T01:34:05.611Z"
    },
    {
        "id": 3270,
        "name": "Crue Brew Brewery",
        "brewery_type": "micro",
        "street": "95 Ryan Dr Ste 6",
        "address_2": null,
        "address_3": null,
        "city": "Raynham",
        "state": "Massachusetts",
        "county_province": null,
        "postal_code": "02767-1992",
        "country": "United States",
        "longitude": null,
        "latitude": null,
        "phone": "5082726090",
        "website_url": "http://www.cruebrewbrewery.com",
        "updated_at": "2018-08-11T21:37:40.614Z",
        "created_at": "2018-07-24T01:33:30.840Z"
    },
    {
        "id": 333,
        "name": "TEST Back Street Brewery & Tasting Room",
        "brewery_type": "micro",
        "street": "1884 S Santa Cruz St",
        "address_2": null,
        "address_3": null,
        "city": "Anaheim",
        "state": "California",
        "county_province": null,
        "postal_code": "92805-6726",
        "country": "United States",
        "longitude": "-117.896089444444",
        "latitude": "33.7998367777778",
        "phone": "6572364050",
        "website_url": "http://www.backstreetbrew.com",
        "updated_at": "2018-08-23T23:24:45.724Z",
        "created_at": "2018-07-24T01:32:51.974Z"
    },
    {
        "id": 785,
        "name": "Loma Brewing Company",
        "brewery_type": "brewpub",
        "street": "130 N Santa Cruz Ave Ste G",
        "address_2": null,
        "address_3": null,
        "city": "Los Gatos",
        "state": "California",
        "county_province": null,
        "postal_code": "95030-5949",
        "country": "United States",
        "longitude": null,
        "latitude": null,
        "phone": "4085609626",
        "website_url": "http://www.lomabrew.com",
        "updated_at": "2018-08-11T21:36:12.064Z",
        "created_at": "2018-07-24T01:32:57.866Z"
    },
    {
        "id": 557,
        "name": "East Cliff Brewing Company",
        "brewery_type": "micro",
        "street": "21517 E Cliff Dr",
        "address_2": null,
        "address_3": null,
        "city": "Santa Cruz",
        "state": "California",
        "county_province": null,
        "postal_code": "95062-4844",
        "country": "United States",
        "longitude": "-122.0136488",
        "latitude": "36.9684053",
        "phone": "8317135540",
        "website_url": "http://www.eastcliffbrewing.com/",
        "updated_at": "2018-08-23T23:27:50.248Z",
        "created_at": "2018-07-24T01:32:54.827Z"
    },
    {
        "id": 691,
        "name": "Humble Sea Brewing Co",
        "brewery_type": "brewpub",
        "street": "820 Swift St",
        "address_2": null,
        "address_3": null,
        "city": "Santa Cruz",
        "state": "California",
        "county_province": null,
        "postal_code": "95060-5866",
        "country": "United States",
        "longitude": "-122.0490197",
        "latitude": "36.9595996",
        "phone": "8314316189",
        "website_url": "http://www.humblesea.com",
        "updated_at": "2018-08-23T23:29:40.975Z",
        "created_at": "2018-07-24T01:32:56.723Z"
    },
    {
        "id": 846,
        "name": "New Bohemia Brewing Co",
        "brewery_type": "brewpub",
        "street": "1030 41st Ave",
        "address_2": null,
        "address_3": null,
        "city": "Santa Cruz",
        "state": "California",
        "county_province": null,
        "postal_code": "95062-4447",
        "country": "United States",
        "longitude": "-121.964793547168",
        "latitude": "36.9666152449717",
        "phone": "8313500253",
        "website_url": "http://www.nubobrew.com",
        "updated_at": "2018-08-23T23:59:59.064Z",
        "created_at": "2018-07-24T01:32:58.658Z"
    },
    {
        "id": 986,
        "name": "Santa Cruz Aleworks",
        "brewery_type": "brewpub",
        "street": "150 Dubois St Ste E",
        "address_2": null,
        "address_3": null,
        "city": "Santa Cruz",
        "state": "California",
        "county_province": null,
        "postal_code": "95060-2114",
        "country": "United States",
        "longitude": null,
        "latitude": null,
        "phone": "8314251182",
        "website_url": "http://www.santacruzaleworks.com",
        "updated_at": "2018-08-11T21:36:19.541Z",
        "created_at": "2018-07-24T01:33:00.520Z"
    },
    {
        "id": 987,
        "name": "Santa Cruz Mountain Brewing",
        "brewery_type": "brewpub",
        "street": "402 Ingalls St Ste 27",
        "address_2": null,
        "address_3": null,
        "city": "Santa Cruz",
        "state": "California",
        "county_province": null,
        "postal_code": "95060-5869",
        "country": "United States",
        "longitude": null,
        "latitude": null,
        "phone": "",
        "website_url": "",
        "updated_at": "2018-08-11T21:36:19.578Z",
        "created_at": "2018-07-24T01:33:00.534Z"
    },
    {
        "id": 995,
        "name": "Seabright Brewery",
        "brewery_type": "brewpub",
        "street": "519 Seabright Ave Ste 107",
        "address_2": null,
        "address_3": null,
        "city": "Santa Cruz",
        "state": "California",
        "county_province": null,
        "postal_code": "95062-3482",
        "country": "United States",
        "longitude": null,
        "latitude": null,
        "phone": "8314262739",
        "website_url": "http://www.seabrightbrewery.com",
        "updated_at": "2018-08-11T21:36:20.239Z",
        "created_at": "2018-07-24T01:33:00.634Z"
    },
    {
        "id": 1006,
        "name": "Shanty Shack Brewing",
        "brewery_type": "brewpub",
        "street": "138 Fern St",
        "address_2": null,
        "address_3": null,
        "city": "Santa Cruz",
        "state": "California",
        "county_province": null,
        "postal_code": "95060-2118",
        "country": "United States",
        "longitude": "-122.030853013199",
        "latitude": "36.9859968034963",
        "phone": "8313160800",
        "website_url": "http://shantyshackbrewing.com",
        "updated_at": "2018-08-24T00:02:26.436Z",
        "created_at": "2018-07-24T01:33:00.776Z"
    },
    {
        "id": 1148,
        "name": "TUYA SuperBrewing Co.",
        "brewery_type": "planning",
        "street": "",
        "address_2": null,
        "address_3": null,
        "city": "Santa Cruz",
        "state": "California",
        "county_province": null,
        "postal_code": "95062-1411",
        "country": "United States",
        "longitude": "-122.0297182",
        "latitude": "36.974201",
        "phone": "8444878892",
        "website_url": "http://www.tuyasuperbrew.com",
        "updated_at": "2018-08-24T00:04:32.057Z",
        "created_at": "2018-07-24T01:33:02.627Z"
    },
    {
        "id": 1153,
        "name": "Uncommon Brewers",
        "brewery_type": "micro",
        "street": "303 Potrero St Ste 40H",
        "address_2": null,
        "address_3": null,
        "city": "Santa Cruz",
        "state": "California",
        "county_province": null,
        "postal_code": "95060-2778",
        "country": "United States",
        "longitude": null,
        "latitude": null,
        "phone": "8316216270",
        "website_url": "http://www.uncommonbrewers.com",
        "updated_at": "2018-08-11T21:36:27.014Z",
        "created_at": "2018-07-24T01:33:02.692Z"
    },
    {
        "id": 1179,
        "name": "Woodhouse Blending & Brewing",
        "brewery_type": "planning",
        "street": "",
        "address_2": null,
        "address_3": null,
        "city": "Santa Cruz",
        "state": "California",
        "county_province": null,
        "postal_code": "95060-",
        "country": "United States",
        "longitude": "-122.0297182",
        "latitude": "36.974201",
        "phone": "6198889489",
        "website_url": "",
        "updated_at": "2018-08-24T00:04:59.932Z",
        "created_at": "2018-07-24T01:33:03.012Z"
    }
]
